[
  {
    "file": "2023-12-08-Madly-Indian.md",
    "address": "342 Kerikeri Road, Kerikeri 0230",
    "country": "New Zealand",
    "lat": "-35.23336825",
    "lon": "173.94313374996213",
    "title": "Madly Indian",
    "rating": 3
  },
  {
    "file": "2023-12-08-Zane-Grey's-Restaurant-&-Bar.md",
    "address": "69 Marsden Road, Paihia 0200",
    "country": "New Zealand",
    "lat": "-35.2815503",
    "lon": "174.092867",
    "title": "Zane Grey's Restaurant & Bar",
    "rating": 1
  },
  {
    "file": "2024-02-22-Stratosfare-Restaurant-&-Bar.md",
    "address": "178 Fairy Springs Road, Fairy Springs, Rotorua 3015",
    "country": "New Zealand",
    "lat": "-38.1108373",
    "lon": "176.2167171",
    "title": "Stratosfare Restaurant & Bar",
    "rating": 1
  },
  {
    "file": "2024-03-20-Autobahn-Cafe.md",
    "address": "State Highway 1, Rosehill, Auckland 2113",
    "country": "New Zealand",
    "lat": "-37.336996",
    "lon": "175.062685",
    "title": "Autobahn Cafe",
    "rating": 1
  },
  {
    "file": "2024-07-19-Ayhan’s-Turkish-Cafe.md",
    "address": "51 George St, Kensington WA 6151",
    "country": "Australia",
    "lat": "-31.9887901",
    "lon": "115.8750924",
    "title": "Ayhan’s Turkish Cafe",
    "rating": 3
  },
  {
    "file": "2024-11-02-Urban-Gusto.md",
    "address": "1122 Tutanekai Street, Rotorua 3010",
    "country": "New Zealand",
    "lat": "-38.1379298",
    "lon": "176.2514245",
    "title": "Urban Gusto",
    "rating": 3
  },
  {
    "file": "2024-11-03-The-Rusty-Bros.md",
    "address": "1263 Amohia Street, Rotorua 3010",
    "country": "New Zealand",
    "lat": "-38.1382865",
    "lon": "176.2485884",
    "title": "The Rusty Bros",
    "rating": 2
  },
  {
    "file": "2024-11-08-A1-Takeaways-Hong-Kong-Style-BBQ.md",
    "address": "36 Rongotai Road, Kilbirnie, Wellington 6022",
    "country": "New Zealand",
    "lat": "-41.3179812",
    "lon": "174.7947157",
    "title": "A1 Takeaways Hong Kong Style BBQ",
    "rating": 2
  },
  {
    "file": "2025-04-24-Kaimak.md",
    "address": "20 Johnsonville Road, Johnsonville, Wellington 6037",
    "country": "New Zealand",
    "lat": "-41.2226313",
    "lon": "174.8070923",
    "title": "Kaimak",
    "rating": 3
  },
  {
    "file": "2023-10-21-Baked-With-Love-Cafe-&-Cakery.md",
    "address": "11 Gascoigne Street, Taupō 3330",
    "country": "New Zealand",
    "lat": "-38.685322549999995",
    "lon": "176.07192896419116",
    "title": "Baked With Love Cafe & Cakery",
    "rating": 3
  },
  {
    "file": "2024-02-20-Bambina-Pizzeria.md",
    "address": "1 Willis Street, Wellington Central, Wellington 6011",
    "country": "New Zealand",
    "lat": "-41.286704",
    "lon": "174.7763157",
    "title": "Bambina Pizzeria",
    "rating": 2
  },
  {
    "file": "2022-01-28-Bay-of-Many-Coves-Resort.md",
    "address": "Queen Charlotte Sound, Private Bag 382, Picton 7250",
    "country": "New Zealand",
    "lat": "-41.290317",
    "lon": "173.99999",
    "title": "Bay of Many Coves Resort",
    "rating": 4
  },
  {
    "file": "Better Choice Cafe.md",
    "address": "211 Bussell Hwy, Margaret River WA 6285, Australia",
    "country": "Australia",
    "lat": "-33.9597168",
    "lon": "115.0765952",
    "title": "Better Choice Cafe",
    "rating": 1
  },
  {
    "file": "Botswana Butchery.md",
    "address": "17 Marine Parade, Queenstown 9300",
    "country": "New Zealand",
    "lat": "-45.0333942",
    "lon": "168.6616236",
    "title": "Botswana Butchery",
    "rating": 3
  },
  {
    "file": "Braaihut.md",
    "address": "12 Vine Street, Whangārei 0110",
    "country": "New Zealand",
    "lat": "-35.7265193",
    "lon": "174.3204411",
    "title": "Braaihut",
    "rating": 3
  },
  {
    "file": "businessandyandthe.md",
    "address": "7 Tūwharetoa Street, Taupō 3330",
    "country": "New Zealand",
    "lat": "-38.6896413",
    "lon": "176.0741555",
    "title": "Tejano Cantina",
    "rating": 3
  }
]